{
  "type": "FeatureCollection",
  "features": [
    {
      "type": "Feature",
      "properties": {
        "name": "Berliner Fernsehturm",
        "type": "tower",
        "url": "http://en.wikipedia.org/wiki/Fernsehturm_Berlin",
        "comment": "Hallo",
        "date": ""
      },
      "geometry": {
        "type": "Point",
        "coordinates": [
          13.409414291381836,
          52.52077779392211
        ]
      }
    },
    {
      "type": "Feature",
      "properties": {
        "name": "Oresund Bridge",
        "type": "bridge",
        "url": "http://en.wikipedia.org/wiki/%C3%98resund_Bridge"
      },
      "geometry": {
        "type": "Point",
        "coordinates": [
          12.807998657226562,
          55.57950909340291
        ]
      }
    },
    {
      "type": "Feature",
      "properties": {
        "name": "Golden Gate Bridge",
        "url": "http://en.wikipedia.org/wiki/Golden_Gate_Bridge",
        "type": "bridge"
      },
      "geometry": {
        "type": "Point",
        "coordinates": [
          -122.47833251953125,
          37.81832758980241
        ]
      }
    },
    {
      "type": "Feature",
      "properties": {
        "name": "Bosphorus Bridge",
        "type": "bridge",
        "url": "http://en.wikipedia.org/wiki/Bosphorus_Bridge"
      },
      "geometry": {
        "type": "Point",
        "coordinates": [
          29.03480529785156,
          41.04518109756753
        ]
      }
    },
    {
      "type": "Feature",
      "properties": {
        "url": "http://en.wikipedia.org/wiki/Giza_Necropolis",
        "name": "Giza Necropolis",
        "type": "building"
      },
      "geometry": {
        "type": "Point",
        "coordinates": [
          31.131091117858887,
          29.97610781008063
        ]
      }
    },
    {
      "type": "Feature",
      "properties": {
        "name": "Enclosure Dam Ijsselmeer",
        "url": "http://en.wikipedia.org/wiki/Afsluitdijk",
        "type": "dam"
      },
      "geometry": {
        "type": "Point",
        "coordinates": [
          5.203399658203125,
          53.01932701946988
        ]
      }
    },
    {
      "type": "Feature",
      "properties": {
        "url": "http://en.wikipedia.org/wiki/Palm_Islands",
        "name": "Palm Islands",
        "type": "landmark"
      },
      "geometry": {
        "type": "Point",
        "coordinates": [
          55.122528076171875,
          25.12663595638182
        ]
      }
    },
    {
      "type": "Feature",
      "properties": {
        "name": "Sigiriya (Lion Rock)",
        "type": "landmark",
        "url": "http://en.wikipedia.org/wiki/Sigiriya"
      },
      "geometry": {
        "type": "Point",
        "coordinates": [
          80.7599401473999,
          7.956652829116874
        ]
      }
    },
    {
      "type": "Feature",
      "properties": {
        "name": "Statue of Liberty",
        "type": "landmark",
        "url": "http://en.wikipedia.org/wiki/Statue_of_Liberty"
      },
      "geometry": {
        "type": "Point",
        "coordinates": [
          -74.04463291168213,
          40.68924563540814
        ]
      }
    },
    {
      "type": "Feature",
      "properties": {
        "name": "New Point",
        "type": "Test-Point",
        "url": "http://geojson.io/#id=github:rreuter/pilots-atlas-poi/blob/master/poi.geojson&map=4/56.00/-4.66",
        "comment": "Test RR"
      },
      "geometry": {
        "type": "Point",
        "coordinates": [
          -4.658203125,
          55.97379820507658
        ]
      }
    }
  ]
}