{
  "type": "FeatureCollection",
  "features": [
    {
      "type": "Feature",
      "properties": {
        "name": "Berliner Fernsehturm",
        "type": "tower",
        "url": "http://en.wikipedia.org/wiki/Fernsehturm_Berlin",
        "comment": "",
        "date": ""
      },
      "geometry": {
        "type": "Point",
        "coordinates": [
          13.409414291381836,
          52.52077779392211
        ]
      }
    },
    {
      "type": "Feature",
      "properties": {
        "name": "Oresund Bridge",
        "type": "bridge",
        "url": "http://en.wikipedia.org/wiki/%C3%98resund_Bridge",
        "comment": "The Öresund or Öresund Bridge is a double-track railway and dual carriageway bridge-tunnel across the Öresundstrait between Scania (southernmost Sweden) and Denmark.",
        "date": "",
        "elevation (meter)": "",
        "length (Km)": "7,845"
      },
      "geometry": {
        "type": "Point",
        "coordinates": [
          12.807998657226562,
          55.57950909340291
        ]
      }
    },
    {
      "type": "Feature",
      "properties": {
        "name": "Golden Gate Bridge",
        "url": "http://en.wikipedia.org/wiki/Golden_Gate_Bridge",
        "type": "bridge",
        "comment": "The Golden Gate Bridge is a suspension bridge spanning the Golden Gate strait, the mile-wide, three-mile-long channel between San Francisco Bay and the Pacific Ocean.",
        "date": "",
        "elevation (meter)": "",
        "length (Km)": "2,737"
      },
      "geometry": {
        "type": "Point",
        "coordinates": [
          -122.47833251953125,
          37.81832758980241
        ]
      }
    },
    {
      "type": "Feature",
      "properties": {
        "name": "Bosphorus Bridge",
        "type": "bridge",
        "url": "http://en.wikipedia.org/wiki/Bosphorus_Bridge"
      },
      "geometry": {
        "type": "Point",
        "coordinates": [
          29.03480529785156,
          41.04518109756753
        ]
      }
    },
    {
      "type": "Feature",
      "properties": {
        "url": "http://en.wikipedia.org/wiki/Giza_Necropolis",
        "name": "Giza Necropolis",
        "type": "building"
      },
      "geometry": {
        "type": "Point",
        "coordinates": [
          31.131091117858887,
          29.97610781008063
        ]
      }
    },
    {
      "type": "Feature",
      "properties": {
        "name": "Enclosure Dam Ijsselmeer",
        "url": "http://en.wikipedia.org/wiki/Afsluitdijk",
        "type": "dam"
      },
      "geometry": {
        "type": "Point",
        "coordinates": [
          5.203399658203125,
          53.01932701946988
        ]
      }
    },
    {
      "type": "Feature",
      "properties": {
        "url": "http://en.wikipedia.org/wiki/Palm_Islands",
        "name": "Palm Islands",
        "type": "landmark"
      },
      "geometry": {
        "type": "Point",
        "coordinates": [
          55.122528076171875,
          25.12663595638182
        ]
      }
    },
    {
      "type": "Feature",
      "properties": {
        "name": "Sigiriya (Lion Rock)",
        "type": "landmark",
        "url": "http://en.wikipedia.org/wiki/Sigiriya"
      },
      "geometry": {
        "type": "Point",
        "coordinates": [
          80.7599401473999,
          7.956652829116874
        ]
      }
    },
    {
      "type": "Feature",
      "properties": {
        "name": "Statue of Liberty",
        "type": "landmark",
        "url": "http://en.wikipedia.org/wiki/Statue_of_Liberty"
      },
      "geometry": {
        "type": "Point",
        "coordinates": [
          -74.04463291168213,
          40.68924563540814
        ]
      }
    },
    {
      "type": "Feature",
      "properties": {
        "name": "Ben Nevis",
        "type": "peak",
        "url": "http://en.wikipedia.org/wiki/Ben_Nevis",
        "elevation (meter)": 1344
      },
      "geometry": {
        "type": "Point",
        "coordinates": [
          -5.003414154052734,
          56.79702439081462
        ]
      }
    },
    {
      "type": "Feature",
      "properties": {
        "name": "Ben Macdhui",
        "type": "peak",
        "url": "http://en.wikipedia.org/wiki/Ben_Macdui",
        "comment": "",
        "date": "",
        "elevation (meter)": 1309
      },
      "geometry": {
        "type": "Point",
        "coordinates": [
          -3.6690902709960938,
          57.070416346118094
        ]
      }
    },
    {
      "type": "Feature",
      "properties": {
        "name": "Braeriach",
        "type": "peak",
        "url": "http://de.wikipedia.org/wiki/Braeriach",
        "comment": "",
        "date": "",
        "elevation (meter)": 1296
      },
      "geometry": {
        "type": "Point",
        "coordinates": [
          -3.7290000915527344,
          57.07806750862629
        ]
      }
    },
    {
      "type": "Feature",
      "properties": {
        "name": "Cairn Toul",
        "type": "peak",
        "url": "http://en.wikipedia.org/wiki/Cairn_Toul",
        "comment": "",
        "date": "",
        "elevation (meter)": 1291
      },
      "geometry": {
        "type": "Point",
        "coordinates": [
          -3.7108039855957027,
          57.05445579673564
        ]
      }
    },
    {
      "type": "Feature",
      "properties": {
        "name": "Sgor an Lochain Uaine",
        "type": "peak",
        "url": "http://en.wikipedia.org/wiki/Sg%C3%B2r_an_Lochain_Uaine",
        "comment": "",
        "date": "",
        "elevation (meter)": 1258
      },
      "geometry": {
        "type": "Point",
        "coordinates": [
          -3.725566864013672,
          57.05818987348866
        ]
      }
    },
    {
      "type": "Feature",
      "properties": {
        "name": "Cairn Gorm",
        "type": "peak",
        "url": "http://en.wikipedia.org/wiki/Cairn_Gorm",
        "comment": "",
        "date": "",
        "elevation (meter)": 1244
      },
      "geometry": {
        "type": "Point",
        "coordinates": [
          -3.6445426940917964,
          57.116392860554505
        ]
      }
    },
    {
      "type": "Feature",
      "properties": {
        "name": "Ben Lawers",
        "type": "peak",
        "url": "http://en.wikipedia.org/wiki/Ben_Lawers",
        "comment": "",
        "date": "",
        "elevation (meter)": 1214
      },
      "geometry": {
        "type": "Point",
        "coordinates": [
          -4.221324920654297,
          56.54481701416055
        ]
      }
    },
    {
      "type": "Feature",
      "properties": {
        "name": "Snowdon",
        "type": "peak",
        "url": "http://en.wikipedia.org/wiki/Snowdon",
        "comment": "",
        "date": "",
        "elevation (meter)": 1085
      },
      "geometry": {
        "type": "Point",
        "coordinates": [
          -4.076957702636719,
          53.06803922644922
        ]
      }
    },
    {
      "type": "Feature",
      "properties": {
        "name": "Carnedd Llewelyn",
        "type": "peak",
        "url": "http://en.wikipedia.org/wiki/Carnedd_Llewelyn",
        "comment": "",
        "date": "",
        "elevation (meter)": 1064
      },
      "geometry": {
        "type": "Point",
        "coordinates": [
          -3.970184326171875,
          53.1600497136244
        ]
      }
    },
    {
      "type": "Feature",
      "properties": {
        "name": "Pen Yr Ole Wen",
        "type": "peak",
        "url": "http://en.wikipedia.org/wiki/Pen_yr_Ole_Wen",
        "comment": "",
        "date": "",
        "elevation (meter)": 978
      },
      "geometry": {
        "type": "Point",
        "coordinates": [
          -4.011039733886719,
          53.13770917044239
        ]
      }
    },
    {
      "type": "Feature",
      "properties": {
        "name": "Scafell Pike",
        "type": "peak",
        "url": "http://en.wikipedia.org/wiki/Scafell_Pike",
        "comment": "",
        "date": "",
        "elevation (meter)": 978
      },
      "geometry": {
        "type": "Point",
        "coordinates": [
          -3.2117843627929688,
          54.45417312136008
        ]
      }
    },
    {
      "type": "Feature",
      "properties": {
        "name": "Slieve Donard",
        "type": "peak",
        "url": "http://en.wikipedia.org/wiki/Slieve_Donard",
        "comment": "",
        "date": "",
        "elevation (meter)": 852
      },
      "geometry": {
        "type": "Point",
        "coordinates": [
          -5.921287536621094,
          54.1801192265262
        ]
      }
    },
    {
      "type": "Feature",
      "properties": {
        "name": "Slieve Commedagh",
        "type": "peak",
        "url": "http://en.wikipedia.org/wiki/Slieve_Commedagh",
        "comment": "",
        "date": "",
        "elevation (meter)": 767
      },
      "geometry": {
        "type": "Point",
        "coordinates": [
          -5.9387969970703125,
          54.18875813719818
        ]
      }
    },
    {
      "type": "Feature",
      "properties": {
        "name": "Uluru - Ayers Rock",
        "type": "peak",
        "url": "http://en.wikipedia.org/wiki/Uluru",
        "elevation (meter)": 863
      },
      "geometry": {
        "type": "Point",
        "coordinates": [
          131.033935546875,
          -25.345267139880555
        ]
      }
    },
    {
      "type": "Feature",
      "properties": {
        "name": "Mount Narodnaya",
        "type": "peak",
        "url": "http://en.wikipedia.org/wiki/Mount_Narodnaya",
        "comment": "",
        "date": "",
        "elevation (meter)": 1895,
        "length (Km)": ""
      },
      "geometry": {
        "type": "Point",
        "coordinates": [
          60.115814208984375,
          65.03737880040538
        ]
      }
    },
    {
      "type": "Feature",
      "properties": {
        "name": "Galdhøpiggen",
        "type": "peak",
        "url": "http://en.wikipedia.org/wiki/Galdh%C3%B8piggen",
        "comment": "",
        "date": "",
        "elevation (meter)": 2469
      },
      "geometry": {
        "type": "Point",
        "coordinates": [
          8.31235885620117,
          61.63642144389094
        ]
      }
    },
    {
      "type": "Feature",
      "properties": {
        "name": "Keilhaus topp",
        "type": "peak",
        "url": "http://en.wikipedia.org/wiki/Keilhaus_topp",
        "comment": "",
        "date": "",
        "elevation (meter)": 2355
      },
      "geometry": {
        "type": "Point",
        "coordinates": [
          8.32639217376709,
          61.6349840864192
        ]
      }
    },
    {
      "type": "Feature",
      "properties": {
        "name": "Kebnekaise",
        "type": "peak",
        "url": "http://en.wikipedia.org/wiki/Kebnekaise",
        "comment": "",
        "date": "",
        "elevation (meter)": 2106
      },
      "geometry": {
        "type": "Point",
        "coordinates": [
          8.337936401367188,
          61.63413795114623
        ]
      }
    },
    {
      "type": "Feature",
      "properties": {
        "name": "Kaskasapakte",
        "type": "peak",
        "url": "",
        "comment": "",
        "date": "",
        "elevation (meter)": 2043
      },
      "geometry": {
        "type": "Point",
        "coordinates": [
          18.52672576904297,
          67.90532642741321
        ]
      }
    },
    {
      "type": "Feature",
      "properties": {
        "name": "Haltitunturi",
        "type": "peak",
        "url": "http://en.wikipedia.org/wiki/Halti",
        "comment": "",
        "date": "",
        "elevation (meter)": 1365
      },
      "geometry": {
        "type": "Point",
        "coordinates": [
          18.5833740234375,
          67.94216576993041
        ]
      }
    },
    {
      "type": "Feature",
      "properties": {
        "name": "Saana",
        "type": "peak",
        "url": "http://en.wikipedia.org/wiki/Saana",
        "comment": "",
        "date": "",
        "elevation (meter)": 1029
      },
      "geometry": {
        "type": "Point",
        "coordinates": [
          21.27914428710937,
          69.31443961708136
        ]
      }
    },
    {
      "type": "Feature",
      "properties": {
        "name": "Rysy",
        "type": "peak",
        "url": "http://en.wikipedia.org/wiki/Rysy",
        "comment": "",
        "date": "",
        "elevation (meter)": 2503
      },
      "geometry": {
        "type": "Point",
        "coordinates": [
          20.855140686035156,
          69.04365063526953
        ]
      }
    },
    {
      "type": "Feature",
      "properties": {
        "name": "Sněžka (Schneekoppe)",
        "type": "peak",
        "url": "http://en.wikipedia.org/wiki/Snezka",
        "elevation (meter)": 1602
      },
      "geometry": {
        "type": "Point",
        "coordinates": [
          20.08901596069336,
          49.17777593186794
        ]
      }
    },
    {
      "type": "Feature",
      "properties": {
        "name": "Mięguszowiecki Szczyt Pośredni",
        "type": "peak",
        "url": "http://sk.wikipedia.org/wiki/Prostredny_Mengusovsky_stit",
        "comment": "",
        "date": "",
        "elevation (meter)": 2393
      },
      "geometry": {
        "type": "Point",
        "coordinates": [
          15.740017890930176,
          50.735939082337104
        ]
      }
    },
    {
      "type": "Feature",
      "properties": {
        "name": "Mount Zeil",
        "type": "peak",
        "url": "http://en.wikipedia.org/wiki/Mount_Zeil",
        "comment": "",
        "date": "",
        "elevation (meter)": 1531
      },
      "geometry": {
        "type": "Point",
        "coordinates": [
          20.061893463134766,
          49.18484512797984
        ]
      }
    },
    {
      "type": "Feature",
      "properties": {
        "name": "Mount Bartle Frere",
        "type": "peak",
        "url": "http://en.wikipedia.org/wiki/Mount_Bartle_Frere",
        "comment": "",
        "date": "",
        "elevation (meter)": 1622
      },
      "geometry": {
        "type": "Point",
        "coordinates": [
          132.3639678955078,
          -23.593250456503075
        ]
      }
    },
    {
      "type": "Feature",
      "properties": {
        "name": "Mount Woodroffe",
        "type": "peak",
        "url": "http://en.wikipedia.org/wiki/Mount_Woodroffe",
        "comment": "",
        "date": "",
        "elevation (meter)": 1435
      },
      "geometry": {
        "type": "Point",
        "coordinates": [
          145.8263397216797,
          -17.392579271057766
        ]
      }
    },
    {
      "type": "Feature",
      "properties": {
        "name": "Mount Bogong",
        "type": "peak",
        "url": "http://en.wikipedia.org/wiki/Mount_Bogong",
        "comment": "",
        "date": "",
        "elevation (meter)": 1986
      },
      "geometry": {
        "type": "Point",
        "coordinates": [
          131.74530029296875,
          -26.305726417424278
        ]
      }
    },
    {
      "type": "Feature",
      "properties": {
        "name": "Mount Meharry",
        "type": "peak",
        "url": "http://en.wikipedia.org/wiki/Mount_Meharry",
        "comment": "",
        "date": "",
        "elevation (meter)": 1249
      },
      "geometry": {
        "type": "Point",
        "coordinates": [
          147.30571746826172,
          -36.732968633440336
        ]
      }
    },
    {
      "type": "Feature",
      "properties": {
        "name": "Atherton Tablelands",
        "type": "vulcano",
        "url": "http://en.wikipedia.org/wiki/Atherton_Tableland",
        "date": "",
        "elevation (meter)": 1622
      },
      "geometry": {
        "type": "Point",
        "coordinates": [
          118.60427856445311,
          -22.974830953706174
        ]
      }
    },
    {
      "type": "Feature",
      "properties": {
        "name": "Mount Fox",
        "type": "peak",
        "url": "http://en.wikipedia.org/wiki/Mount_Fox_(Queensland)",
        "comment": "",
        "date": "",
        "elevation (meter)": 120
      },
      "geometry": {
        "type": "Point",
        "coordinates": [
          145.53348541259766,
          -17.16637836599184
        ]
      }
    },
    {
      "type": "Feature",
      "properties": {
        "name": "Mount Barney",
        "type": "peak",
        "url": "http://en.wikipedia.org/wiki/Mount_Barney",
        "comment": "",
        "date": "",
        "elevation (meter)": 1359
      },
      "geometry": {
        "type": "Point",
        "coordinates": [
          145.8057403564453,
          -18.836114907961953
        ]
      }
    },
    {
      "type": "Feature",
      "properties": {
        "name": "Mount Lindesay",
        "type": "peak",
        "url": "http://en.wikipedia.org/wiki/Mount_Lindesay_(Queensland)",
        "comment": "",
        "date": "",
        "elevation (meter)": 1177
      },
      "geometry": {
        "type": "Point",
        "coordinates": [
          152.69777297973633,
          -28.28034707006521
        ]
      }
    },
    {
      "type": "Feature",
      "properties": {
        "name": "Mount Canobolas",
        "type": "peak",
        "url": "http://en.wikipedia.org/wiki/Mount_Canobolas",
        "comment": "",
        "date": "",
        "elevation (meter)": 1396
      },
      "geometry": {
        "type": "Point",
        "coordinates": [
          152.72403717041016,
          -28.343971397415416
        ]
      }
    },
    {
      "type": "Feature",
      "properties": {
        "name": "Mount Kaputar",
        "type": "peak",
        "url": "http://en.wikipedia.org/wiki/Mount_Kaputar",
        "comment": "",
        "date": "",
        "elevation (meter)": 1508
      },
      "geometry": {
        "type": "Point",
        "coordinates": [
          148.98387908935547,
          -33.342861977957845
        ]
      }
    },
    {
      "type": "Feature",
      "properties": {
        "name": "Mount Warning (Wollumbin)",
        "type": "peak",
        "url": "http://en.wikipedia.org/wiki/Mount_Warning",
        "comment": "",
        "date": "",
        "elevation (meter)": 1156
      },
      "geometry": {
        "type": "Point",
        "coordinates": [
          150.1508331298828,
          -30.256991352205794
        ]
      }
    },
    {
      "type": "Feature",
      "properties": {
        "name": "Mount Hotham",
        "type": "peak",
        "url": "http://en.wikipedia.org/wiki/Mount_Hotham",
        "comment": "",
        "date": "",
        "elevation (meter)": 1861
      },
      "geometry": {
        "type": "Point",
        "coordinates": [
          153.2706069946289,
          -28.3977427714554
        ]
      }
    },
    {
      "type": "Feature",
      "properties": {
        "name": "Big Ben",
        "type": "vulcano",
        "url": "http://en.wikipedia.org/wiki/Big_Ben_(Heard_Island)",
        "comment": "",
        "date": "",
        "elevation (meter)": 2745
      },
      "geometry": {
        "type": "Point",
        "coordinates": [
          147.1282196044922,
          -36.97567823176651
        ]
      }
    },
    {
      "type": "Feature",
      "properties": {
        "name": "Ball’s Pyramid",
        "type": "peak",
        "url": "http://en.wikipedia.org/wiki/Ball%27s_Pyramid",
        "comment": "",
        "date": "",
        "elevation (meter)": 552
      },
      "geometry": {
        "type": "Point",
        "coordinates": [
          73.4710693359375,
          -53.084126922178825
        ]
      }
    },
    {
      "type": "Feature",
      "properties": {
        "name": "Mount Townsend",
        "type": "peak",
        "url": "http://de.wikipedia.org/wiki/Mount_Townsend",
        "comment": "",
        "date": "",
        "elevation (meter)": 2209
      },
      "geometry": {
        "type": "Point",
        "coordinates": [
          159.25043106079102,
          -31.753714855622707
        ]
      }
    },
    {
      "type": "Feature",
      "properties": {
        "name": "Mount Twynam",
        "type": "peak",
        "url": "http://en.wikipedia.org/wiki/Mount_Twynam",
        "comment": "",
        "date": "",
        "elevation (meter)": 2196
      },
      "geometry": {
        "type": "Point",
        "coordinates": [
          148.25843811035156,
          -36.422387486423695
        ]
      }
    },
    {
      "type": "Feature",
      "properties": {
        "name": "Rams Head",
        "type": "peak",
        "url": "http://en.wikipedia.org/wiki/Rams_Head",
        "comment": "",
        "date": "",
        "elevation (meter)": 2190
      },
      "geometry": {
        "type": "Point",
        "coordinates": [
          148.31457138061523,
          -36.393374902600684
        ]
      }
    },
    {
      "type": "Feature",
      "properties": {
        "name": "Etheridge Ridge",
        "type": "peak",
        "url": "http://de.wikipedia.org/wiki/Etheridge_Ridge",
        "comment": "",
        "date": "",
        "elevation (meter)": 2180
      },
      "geometry": {
        "type": "Point",
        "coordinates": [
          148.25878143310547,
          -36.491559453051735
        ]
      }
    },
    {
      "type": "Feature",
      "properties": {
        "name": "Mount Gungartan",
        "type": "peak",
        "url": "http://en.wikipedia.org/wiki/Gungartan",
        "comment": "",
        "date": "",
        "elevation (meter)": 2068
      },
      "geometry": {
        "type": "Point",
        "coordinates": [
          148.26976776123044,
          -36.4556695266622
        ]
      }
    },
    {
      "type": "Feature",
      "properties": {
        "name": "Mount Jagungal",
        "type": "peak",
        "url": "http://de.wikipedia.org/wiki/Mount_Jagungal",
        "comment": "",
        "date": "",
        "elevation (meter)": 2161
      },
      "geometry": {
        "type": "Point",
        "coordinates": [
          148.40091705322266,
          -36.28427370218716
        ]
      }
    },
    {
      "type": "Feature",
      "properties": {
        "name": "Bimberi Peak",
        "type": "peak",
        "url": "http://peakbagger.com/peak.aspx?pid=11592",
        "comment": "",
        "date": "",
        "elevation (meter)": 1913
      },
      "geometry": {
        "type": "Point",
        "coordinates": [
          148.38735580444336,
          -36.148132946459825
        ]
      }
    },
    {
      "type": "Feature",
      "properties": {
        "name": "Danyang–Kunshan Grand Bridge",
        "type": "bridge",
        "url": "http://en.wikipedia.org/wiki/Danyang%E2%80%93Kunshan_Grand_Bridge",
        "comment": "built: 2010, opened: 30.06.2011,  is the world's longest bridge",
        "date": "",
        "elevation (meter)": "",
        "length (Km)": "164,8"
      },
      "geometry": {
        "type": "Point",
        "coordinates": [
          148.79676818847656,
          -35.6734740567787
        ]
      }
    },
    {
      "type": "Feature",
      "properties": {
        "name": "Jiaozhou Bay Bridge",
        "url": "http://en.wikipedia.org/wiki/Jiaozhou_Bay_Bridge",
        "type": "bridge",
        "comment": "world's \"longest bridge\" over water, constructed:2007-2011, opened: 30.06.2011",
        "date": "",
        "elevation (meter)": "",
        "length (Km)": "26,707"
      },
      "geometry": {
        "type": "Point",
        "coordinates": [
          120.52688598632812,
          30.146314738085053
        ]
      }
    },
    {
      "type": "Feature",
      "properties": {
        "name": "Lake Pontchartrain Causeway",
        "type": "bridge",
        "url": "http://en.wikipedia.org/wiki/Lake_Pontchartrain_Causeway",
        "comment": "The Lake Pontchartrain Causeway, sometimes only the Causeway,[2] is a causeway composed of two parallel bridges crossing Lake Pontchartrain in southern Louisiana, United States.",
        "date": "",
        "elevation (meter)": "",
        "length (Km)": "38,442"
      },
      "geometry": {
        "type": "Point",
        "coordinates": [
          120.20690917968749,
          36.14231087352999
        ]
      }
    },
    {
      "type": "Feature",
      "properties": {
        "name": "Ponte Vasco da Gama",
        "type": "bridge",
        "url": "http://en.wikipedia.org/wiki/Ponte_Vasco_da_Gama",
        "comment": "The Vasco da Gama Bridge is a cable-stayed bridge flanked by viaducts and rangeviews that spans the Tagus River in Parque das Nações in Lisbon, capital of Portugal, built in  1998",
        "date": "",
        "elevation (meter)": "",
        "length (Km)": "17,2"
      },
      "geometry": {
        "type": "Point",
        "coordinates": [
          -90.14007568359375,
          30.139189195422194
        ]
      }
    },
    {
      "type": "Feature",
      "properties": {
        "url": "http://en.wikipedia.org/wiki/25_de_Abril_Bridge",
        "name": "Ponte 25 de Abril",
        "type": "bridge",
        "comment": "The 25 de Abril Bridge is a suspension bridge connecting the city of Lisbon, capital of Portugal, to the municipality of Almada on the left (south) bank of the Tejo river.",
        "date": "",
        "elevation (meter)": "",
        "length (Km)": "2,278"
      },
      "geometry": {
        "type": "Point",
        "coordinates": [
          -9.045867919921875,
          38.762650338334154
        ]
      }
    },
    {
      "type": "Feature",
      "properties": {
        "url": "http://en.wikipedia.org/wiki/Sidu_River_Bridge",
        "name": "Sidu River Bridge",
        "type": "bridge",
        "comment": "World's highest bridge since 2009. The Sidu River Bridge is a 1,222 m-long (4,009 ft) suspension bridge crossing the valley of the Sidu River near Yesanguan in Badong County of the Hubei Province",
        "date": "",
        "elevation (meter)": "",
        "length (Km)": "1,222"
      },
      "geometry": {
        "type": "Point",
        "coordinates": [
          -9.180450439453125,
          38.69086943518648
        ]
      }
    },
    {
      "type": "Feature",
      "properties": {
        "name": "Bang Na Expressway",
        "type": "bridge",
        "url": "http://en.wikipedia.org/wiki/Bang_Na_Expressway",
        "comment": "The Bang Na Expressway is a 55 km long six-lane elevated highway in Thailand.",
        "date": "",
        "elevation (meter)": "",
        "length (Km)": "55,0"
      },
      "geometry": {
        "type": "Point",
        "coordinates": [
          110.3961181640625,
          30.622550184776674
        ]
      }
    },
    {
      "type": "Feature",
      "properties": {
        "name": "Manchac Swamp Brücke",
        "type": "bridge",
        "url": "http://en.wikipedia.org/wiki/Manchac_Swamp_bridge",
        "comment": "The Manchac Swamp Bridge is a twin concrete trestle bridge in the US state of Louisiana. With a total length of 22.80 miles (36.69 km) it is one of the longest bridges in the world over water.",
        "date": "",
        "elevation (meter)": "",
        "length (Km)": "36,710"
      },
      "geometry": {
        "type": "Point",
        "coordinates": [
          100.77621459960938,
          13.604612895598308
        ]
      }
    },
    {
      "type": "Feature",
      "properties": {
        "name": "Hangzhou Bay Bridge",
        "type": "bridge",
        "url": "http://en.wikipedia.org/wiki/Hangzhou_Bay_Bridge",
        "comment": "Hangzhou Bay Bridge is a highway bridge with a cable-stayed portion across Hangzhou Bay in the eastern coastal region of China.",
        "date": "",
        "elevation (meter)": "",
        "length (Km)": "35,673"
      },
      "geometry": {
        "type": "Point",
        "coordinates": [
          -90.40924072265625,
          30.308874460573502
        ]
      }
    },
    {
      "type": "Feature",
      "properties": {
        "name": "Donghai Bridge",
        "type": "bridge",
        "url": "http://en.wikipedia.org/wiki/Donghai_Bridge",
        "comment": "Donghai Bridge is one of the longest cross-sea bridges in the world. It was completed on December 10, 2005. It has a total length of 32.5 kilometres (20.2 mi) and connects mainland Shanghai and the offshore Yangshan deep-water port in China.",
        "length (Km)": "32,5"
      },
      "geometry": {
        "type": "Point",
        "coordinates": [
          121.124267578125,
          30.460511875130663
        ]
      }
    },
    {
      "type": "Feature",
      "properties": {
        "name": "Atchafalaya Basin Bridge",
        "type": "bridge",
        "url": "http://en.wikipedia.org/wiki/Atchafalaya_Basin",
        "comment": "",
        "date": "",
        "elevation (meter)": "",
        "length (Km)": "29,29"
      },
      "geometry": {
        "type": "Point",
        "coordinates": [
          121.97296142578124,
          30.725309888823382
        ]
      }
    },
    {
      "type": "Feature",
      "properties": {
        "url": "http://en.wikipedia.org/wiki/King_Fahd_Causeway",
        "name": "King Fahd Causeway",
        "type": "bridge",
        "comment": "The King Fahd Causeway is a series of bridges and causeways connecting Saudi Arabia and Bahrain.",
        "date": "",
        "elevation (meter)": "",
        "length (Km)": "25,0"
      },
      "geometry": {
        "type": "Point",
        "coordinates": [
          -91.58065795898438,
          30.38235321766959
        ]
      }
    },
    {
      "type": "Feature",
      "properties": {
        "name": "Chesapeake Bay Bridge",
        "type": "bridge",
        "url": "http://en.wikipedia.org/wiki/Chesapeake_Bay_Bridge%E2%80%93Tunnel",
        "comment": "The Chesapeake Bay Bridge–Tunnel (CBBT) is a 23-mile-long (37 km) fixed link crossing the mouth of the United States' Chesapeake Bay and connecting the Delmarva Peninsula's Eastern Shore of the state ofVirginia with Virginia Beach and the metropolitan area of Hampton Roads, Virginia.",
        "date": "",
        "elevation (meter)": "",
        "length (Km)": "28,3"
      },
      "geometry": {
        "type": "Point",
        "coordinates": [
          50.3009033203125,
          26.194876675795218
        ]
      }
    },
    {
      "type": "Feature",
      "properties": {
        "name": "Shanghai Yangtze River Tunnel and Bridge",
        "type": "bridge",
        "url": "http://en.wikipedia.org/wiki/Shanghai_Yangtze_River_Tunnel_and_Bridge",
        "comment": "The Shanghai Yangtze River Tunnel starts on the south bank of the Yangtze at Wuhaogou, Pudong and ends in the south of Changxing Island. It is 8.9 kilometres (5.5 mi) in length, and has two stacked levels. ",
        "date": "",
        "elevation (meter)": "",
        "length (Km)": "8,9"
      },
      "geometry": {
        "type": "Point",
        "coordinates": [
          -76.0968017578125,
          37.00693943418586
        ]
      }
    },
    {
      "type": "Feature",
      "properties": {
        "name": "Penang Second Bridge",
        "type": "bridge",
        "url": "http://en.wikipedia.org/wiki/Penang_Second_Bridge",
        "comment": "The Penang Second Bridge is a bridge in Penang, Malaysia. It connects Batu Kawan on the mainland with Seberang Perai and Batu Maung on Penang Island. It is the second bridge to link the island to the mainland after the first Penang Bridge.",
        "date": "",
        "elevation (meter)": "",
        "length (Km)": "24,0"
      },
      "geometry": {
        "type": "Point",
        "coordinates": [
          121.6845703125,
          31.353636941500987
        ]
      }
    },
    {
      "type": "Feature",
      "properties": {
        "url": "http://en.wikipedia.org/wiki/Penang_Bridge",
        "name": "Penang Bridge (1st)",
        "type": "bridge",
        "comment": "Penang Bridge is a dual carriageway toll bridge connects George Town on the island of Penang and Seberang Prai on the mainland of Malaysia on the Malay Peninsula.",
        "date": "",
        "elevation (meter)": "",
        "length (Km)": "13,5"
      },
      "geometry": {
        "type": "Point",
        "coordinates": [
          100.35633087158203,
          5.254725948409637
        ]
      }
    },
    {
      "type": "Feature",
      "properties": {
        "name": "Rio–Niterói Bridge",
        "type": "bridge",
        "url": "http://en.wikipedia.org/wiki/Rio%E2%80%93Niter%C3%B3i_Bridge",
        "comment": "President Costa e Silva Bridge, commonly known as the Rio-Niteroi Bridge, is a box girder bridge located at Guanabara Bay, in the State of Rio de Janeiro in Brazil. It connects the cities of Rio de Janeiro and the municipality of Niterói.",
        "date": "",
        "elevation (meter)": "",
        "length (Km)": "13,29"
      },
      "geometry": {
        "type": "Point",
        "coordinates": [
          100.35049438476561,
          5.357623243645222
        ]
      }
    },
    {
      "type": "Feature",
      "properties": {
        "name": "Confederation Bridge",
        "type": "bridge",
        "url": "http://en.wikipedia.org/wiki/Confederation_Bridge",
        "comment": "The Confederation Bridge spans the Abegweit Passage of Northumberland Strait. It links Prince Edward Island with mainland New Brunswick, Canada. ",
        "date": "",
        "elevation (meter)": "",
        "length (Km)": "12,9"
      },
      "geometry": {
        "type": "Point",
        "coordinates": [
          -43.17146301269531,
          -22.8673179600756
        ]
      }
    },
    {
      "type": "Feature",
      "properties": {
        "name": "Incheon Bridge",
        "type": "bridge",
        "url": "http://en.wikipedia.org/wiki/Incheon_Bridge",
        "comment": "The Incheon Bridge (also called the Incheon Grand Bridge) is a newly constructed reinforced concrete bridge in South Korea. At its opening in October 2009, it became the second connection between Yeongjong Island and the mainland of Incheon.",
        "date": "",
        "elevation (meter)": "",
        "length (Km)": "21,38"
      },
      "geometry": {
        "type": "Point",
        "coordinates": [
          -63.77563476562499,
          46.19219023536159
        ]
      }
    },
    {
      "type": "Feature",
      "properties": {
        "name": "Great Belt Fixed Link",
        "type": "bridge",
        "url": "http://en.wikipedia.org/wiki/Great_Belt_Fixed_Link",
        "comment": "The Great Belt Fixed Link runs between the Danish islands of Zealand and Funen. It consists of a road suspension bridge and railway tunnel between Zealand and the Island Sprogø, and a box girder bridge between Sprogø and Funen. ",
        "date": "",
        "elevation (meter)": "",
        "length (Km)": "6,790"
      },
      "geometry": {
        "type": "Point",
        "coordinates": [
          126.5460205078125,
          37.42470717168675
        ]
      }
    },
    {
      "type": "Feature",
      "properties": {
        "name": "Öland Bridge",
        "type": "bridge",
        "url": "http://en.wikipedia.org/wiki/%C3%96land_Bridge",
        "comment": "The Öland Bridge is a road bridge connecting Kalmar on mainland Sweden to Färjestaden on the island of Öland to its east. At 6,072 meters long, it is one of the longest in all of Europe.",
        "date": "",
        "elevation (meter)": "",
        "length (Km)": "6,072"
      },
      "geometry": {
        "type": "Point",
        "coordinates": [
          10.97259521484375,
          55.338517844256366
        ]
      }
    },
    {
      "type": "Feature",
      "properties": {
        "name": "Hell Gate Bridge",
        "type": "bridge",
        "url": "http://en.wikipedia.org/wiki/Hell_Gate_Bridge",
        "comment": "The Hell Gate Bridge is a 1,017-foot (310 m) steel through arch railroad bridge in New York City. ",
        "date": "",
        "elevation (meter)": "",
        "length (Km)": "5,20"
      },
      "geometry": {
        "type": "Point",
        "coordinates": [
          16.41357421875,
          56.67584735015159
        ]
      }
    },
    {
      "type": "Feature",
      "properties": {
        "name": "Zeeland Bridge",
        "type": "bridge",
        "url": "http://en.wikipedia.org/wiki/Zeeland_Bridge",
        "comment": "The Zeeland Bridge is the longest bridge in the Netherlands. The bridge spans the Oosterschelde estuary. It connects the islands of Schouwen-Duiveland and Noord-Beveland in the province of Zeeland",
        "date": "",
        "elevation (meter)": "",
        "length (Km)": "5,022"
      },
      "geometry": {
        "type": "Point",
        "coordinates": [
          -73.92288208007812,
          40.783271058668454
        ]
      }
    },
    {
      "type": "Feature",
      "properties": {
        "name": "Baluarte Bridge",
        "type": "bridge",
        "url": "http://en.wikipedia.org/wiki/Baluarte_Bridge",
        "comment": "The Baluarte Bridge, officially the Baluarte Bicentennial Bridge, is a cable-stayed bridge in Mexico. ",
        "date": "",
        "elevation (meter)": "",
        "length (Km)": "1,124"
      },
      "geometry": {
        "type": "Point",
        "coordinates": [
          3.7078857421874996,
          51.63719775332166
        ]
      }
    },
    {
      "type": "Feature",
      "properties": {
        "name": "Millau Viaduct",
        "type": "bridge",
        "url": "http://en.wikipedia.org/wiki/Millau_Viaduct",
        "comment": "The Millau Viaduct is a cable-stayed bridge that spans the valley of the River Tarn near Millau in southern France.",
        "date": "",
        "elevation (meter)": "",
        "length (Km)": "2,460"
      },
      "geometry": {
        "type": "Point",
        "coordinates": [
          -105.76177597045898,
          23.534245132668826
        ]
      }
    },
    {
      "type": "Feature",
      "properties": {
        "name": "Sutong Bridge",
        "type": "bridge",
        "url": "http://en.wikipedia.org/wiki/Sutong_Bridge",
        "comment": "The Sutong Yangtze River Bridge, is a cable-stayed bridge that spans the Yangtze River in China between Nantong and Changshu, a satellite city of Suzhou, in Jiangsu province.",
        "date": "",
        "elevation (meter)": "",
        "length (Km)": "8,206"
      },
      "geometry": {
        "type": "Point",
        "coordinates": [
          3.0205535888671875,
          44.097201680022955
        ]
      }
    },
    {
      "type": "Feature",
      "properties": {
        "name": "Akashi Kaikyō Bridge",
        "type": "bridge",
        "url": "http://en.wikipedia.org/wiki/Akashi_Kaiky%C5%8D_Bridge",
        "comment": "The Akashi Kaikyō Bridge, also known as the Pearl Bridge, links the city of Kobe on the mainland of Honshu to Iwaya on Awaji Island, in Japan. It crosses the busy Akashi Strait in Japanese.",
        "date": "",
        "elevation (meter)": "",
        "length (Km)": "3,911"
      },
      "geometry": {
        "type": "Point",
        "coordinates": [
          120.99517822265625,
          31.784216884487385
        ]
      }
    },
    {
      "type": "Feature",
      "properties": {
        "name": "Stonecutters Bridge",
        "type": "bridge",
        "url": "http://en.wikipedia.org/wiki/Stonecutters_Bridge",
        "comment": "Stonecutters Bridge is a high level cable-stayed bridge which spans the Rambler Channel in Hong Kong, connecting Nam Wan Kok, Tsing Yi island and Stonecutters Island. The bridge deck was completed on 7 April 2009, making this the second longest cable-stayed span in the world at the time of its completion, and opened to traffic on 20 December 2009",
        "date": "",
        "elevation (meter)": "",
        "length (Km)": "1,596"
      },
      "geometry": {
        "type": "Point",
        "coordinates": [
          135.0212860107422,
          34.61795213502554
        ]
      }
    },
    {
      "type": "Feature",
      "properties": {
        "url": "http://en.wikipedia.org/wiki/Tatara_Bridge",
        "name": "Tatara Bridge",
        "type": "bridge",
        "comment": "The Tatara Bridge is a cable-stayed bridge that is part of the Nishiseto Expressway, commonly known as the Shimanami Kaidō. The bridge has a center span of 890 metres. As of 2010 it has the fourth longest main span of any cable-stayed bridge after the Sutong Bridge.",
        "date": "",
        "elevation (meter)": "",
        "length (Km)": "1,480"
      },
      "geometry": {
        "type": "Point",
        "coordinates": [
          114.11842346191405,
          22.325782524687973
        ]
      }
    },
    {
      "type": "Feature",
      "properties": {
        "name": "Pont de Normandie",
        "type": "bridge",
        "url": "http://en.wikipedia.org/wiki/Pont_de_Normandie",
        "comment": "The Pont de Normandie is a cable-stayed road bridge that spans the river Seine linking Le Havre to Honfleur in Normandy, northern France.",
        "date": "",
        "elevation (meter)": "",
        "length (Km)": "2,143"
      },
      "geometry": {
        "type": "Point",
        "coordinates": [
          133.0615997314453,
          34.259770269100535
        ]
      }
    },
    {
      "type": "Feature",
      "properties": {
        "url": "http://en.wikipedia.org/wiki/Runyang_Bridge",
        "name": "Runyang-Brücke",
        "type": "bridge",
        "comment": "The Runyang Bridge is a large bridge complex that crosses the Yangtze River in Jiangsu Province, China, downstream of Nanjing. The complex consists of two major bridges that link Zhenjiang on the south bank of the river and Yangzhou on the north.",
        "date": "",
        "elevation (meter)": "",
        "length (Km)": "1,896"
      },
      "geometry": {
        "type": "Point",
        "coordinates": [
          0.27294158935546875,
          49.435984899682005
        ]
      }
    },
    {
      "type": "Feature",
      "properties": {
        "name": "Verrazano–Narrows Bridge",
        "type": "bridge",
        "url": "http://en.wikipedia.org/wiki/Verrazano%E2%80%93Narrows_Bridge",
        "comment": "The Verrazano–Narrows Bridge, in the U.S. state of New York, is a double-decked suspension bridge that connects the boroughs of Staten Island and Brooklyn in New York City at the Narrows, the reach connecting the relatively protected upper bay with the larger lower bay.",
        "date": "",
        "elevation (meter)": "",
        "length (Km)": "1,298"
      },
      "geometry": {
        "type": "Point",
        "coordinates": [
          119.35821533203125,
          32.219772236460905
        ]
      }
    },
    {
      "type": "Feature",
      "properties": {
        "name": "Kocher Viaduct",
        "type": "bridge",
        "url": "http://en.wikipedia.org/wiki/Kocher_Viaduct",
        "comment": "On the Kocher Viaduct near Schwäbisch Hall in Germany, crosses the Kocher valley between Heilbronn and Nuremberg. With its maximum height of 185m above the valley bottom, it is the highest viaduct in Germany.",
        "date": "",
        "elevation (meter)": "",
        "length (Km)": "1,128"
      },
      "geometry": {
        "type": "Point",
        "coordinates": [
          -74.04716491699219,
          40.60613336268842
        ]
      }
    },
    {
      "type": "Feature",
      "properties": {
        "name": "Bebresh Viaduct",
        "type": "bridge",
        "url": "http://www.highestbridges.com/wiki/index.php?title=Bebresh_Viaduct",
        "comment": "The highest bridge in Bulgaria, the Bebresh Viaduct is located on the Hemus Motorway 60 km east of Sofia. The bridge looks and feels massive from the many tall piers that rise 120 m from the valley floor."
      },
      "geometry": {
        "type": "Point",
        "coordinates": [
          9.787273406982422,
          49.17721484130587
        ]
      }
    },
    {
      "type": "Feature",
      "properties": {
        "name": "Europabrücke (Brenner)",
        "type": "bridge",
        "url": "http://en.wikipedia.org/wiki/Europabruecke",
        "comment": "Europabrücke, or Europe's bridge, is a 777-metre (2,549 ft) long bridge spanning the 657-metre (2,156 ft) Wipp valley just south of Innsbruck, Tirol, Austria. ",
        "date": "",
        "elevation (meter)": "",
        "length (Km)": "0,777"
      },
      "geometry": {
        "type": "Point",
        "coordinates": [
          23.796730041503906,
          42.83689135855862
        ]
      }
    },
    {
      "type": "Feature",
      "properties": {
        "url": "http://en.wikipedia.org/wiki/Nanjing_Yangtze_River_Bridge",
        "name": "Nanjing Yangste Bridge",
        "type": "bridge",
        "comment": "The Nanjing Yangtze River Bridge is a double-decked road-rail truss bridge across the Yangtze River between Pukou and Xiaguan in Nanjing, China.",
        "date": "",
        "elevation (meter)": "",
        "length (Km)": "1,576"
      },
      "geometry": {
        "type": "Point",
        "coordinates": [
          11.401576995849608,
          47.201843347946806
        ]
      }
    },
    {
      "type": "Feature",
      "properties": {
        "name": ""
      },
      "geometry": {
        "type": "Point",
        "coordinates": [
          118.73954772949219,
          32.115148622612445
        ]
      }
    }
  ]
}